     2.11           OBSERVATION DATA    G (GPS)             RINEX VERSION / TYPE
teqc  2009Mar23                         20120101 01:04:05UTCPGM / RUN BY / DATE
Linux 2.4.20-8|Pentium IV|gcc -static|Linux|486/DX+         COMMENT
ALGO CACS-GSD 883160 ALGONQUIN PARK ON CANADA               MARKER NAME
40104M002                                                   MARKER NUMBER
OPERATOR            NRCan/GEODETIC SURVEY OF CANADA         OBSERVER / AGENCY
124-U               AOA BENCHMARK ACT   3.3.32.2N           REC # / TYPE / VERS
386                 AOAD/M_T        NONE                    ANT # / TYPE
   918129.4000 -4346071.2000  4561977.8000                  APPROX POSITION XYZ
        0.1000        0.0000        0.0000                  ANTENNA: DELTA H/E/N
     1     1                                                WAVELENGTH FACT L1/2
     7    L1    L2    C1    P2    P1    S1    S2            # / TYPES OF OBSERV
    30.0000                                                 INTERVAL
    P1 =    P1  TurboRogue; =    Y1  Benchmark              COMMENT
    L1 = L1(CA)                                             COMMENT
    P2 =    P2  TurboRogue; =    Y2  Benchmark              COMMENT
    L2 = L2(P2) TurboRogue; = L2(Y2) Benchmark              COMMENT
 SNR is mapped to RINEX snr flag value [0-9]                COMMENT
  L1 & L2: min(max(int(snr_dBHz/6), 0), 9)                  COMMENT
  2012     1     1     0     0    0.0000000     GPS         TIME OF FIRST OBS
                                                            END OF HEADER
 12  1  1  0  0  0.0000000  0  9G27G12G18G31G11G14G25G 9G22
 128984182.453 4 100507158.881 3  24544871.595    24544871.860    24544870.606
        24.900          23.800
 120716487.242 5  94064787.111 5  22971589.243    22971589.295    22971589.860
        34.000          33.000
 112875393.939 6  87954866.186 5  21479462.631    21479461.551    21479462.187
        41.000          35.100
 127481837.714 4  99336496.516 3  24258987.106    24258988.228    24258986.981
        27.100          23.000
 127514365.647 3  99361851.405 2  24265171.844    24265171.477    24265171.847
        23.000          16.100
 110411537.644 7  86034972.497 7  21010612.488    21010611.281    21010611.971
        44.000          42.000
 124593648.100 5  97085949.079 4  23709392.347    23709394.037    23709390.782
        33.000          25.900
 114985214.384 6  89598879.471 5  21880950.905    21880950.474    21880950.540
        39.000          34.000
 106490504.247 8  82979636.868 8  20264453.080    20264449.489    20264451.854
        49.000          50.000
 12  1  1  0  0 30.0000000  0  9G27G12G18G31G11G14G25G 9G22
 129082645.521 3 100583883.329 4  24563608.277    24563608.390    24563607.389
        22.100          24.900
 120659220.102 5  94020163.412 5  22960692.613    22960691.365    22960692.249
        34.000          32.000
 112944461.139 6  88008684.772 5  21492606.316    21492604.535    21492605.449
        41.000          35.100
 127369762.914 4  99249165.511 4  24237659.888    24237661.067    24237659.617
        25.900          25.900
 127483829.727 3  99338057.165 1  24259360.811    24259360.294    24259360.466
        21.100           9.000
 110369751.124 7  86002411.593 7  21002660.828    21002659.608    21002660.230
        44.000          42.000
 124499487.147 5  97012576.992 4  23691473.250    23691475.352    23691472.525
        33.000          24.900
 115073462.505 6  89667644.234 5  21897744.079    21897743.575    21897743.622
        39.000          34.000
 106486782.694 8  82976736.966 8  20263744.690    20263741.248    20263743.624
        49.000          50.000
 12  1  1  0  1  0.0000000  0  9G27G12G18G31G11G14G25G 9G22
 129181184.620 3 100660667.024 3  24582359.227    24582359.597    24582358.589
        23.800          22.100
 120602419.631 5  93975903.331 5  22949882.026    22949882.534    22949883.351
        34.000          32.000
 113013900.061 6  88062793.000 5  21505820.007    21505818.433    21505819.246
        41.000          35.100
 127257821.469 4  99161938.437 4  24216358.014    24216359.377    24216357.926
        28.100          27.100
 127453826.346 3  99314677.959 2  24253651.666    24253651.027    24253651.240
        23.000          17.000
 110328233.949 7  85970060.570 7  20994760.086    20994759.211    20994759.637
        44.000          43.000
 124405514.863 5  96939351.940 4  23673590.337    23673593.385    23673589.953
        33.000          27.100
 115162104.250 6  89736715.728 5  21914612.267    21914611.336    21914611.674
        38.000          33.000
 106483530.042 8  82974202.439 8  20263125.902    20263122.273    20263124.690
        49.000          50.000
 12  1  1  0  1 30.0000000  0  9G27G12G18G31G11G14G25G 9G22
 129279797.771 4 100737508.476 3  24601124.974    24601124.618    24601124.531
        28.100          21.100
 120546088.607 5  93932009.072 5  22939164.833    22939163.253    22939164.127
        35.100          32.000
 113083710.052 6  88117190.367 5  21519104.038    21519102.844    21519103.462
        41.000          35.100
 127146015.441 3  99074816.862 4  24195082.141    24195083.246    24195081.929
        23.800          24.900
 127424356.412 3  99291714.399 2  24248043.912    24248043.112    24248043.484
        23.800          15.100
 110286986.364 7  85937919.621 7  20986910.969    20986909.914    20986910.500
        44.000          43.000
 124311734.496 5  96866276.439 4  23655744.082    23655747.717    23655743.614
        32.000          27.100
 115251136.563 6  89806091.549 5  21931554.636    21931553.702    21931554.032
        39.000          34.000
 106480746.983 8  82972033.840 8  20262596.100    20262592.666    20262595.081
        49.000          50.000
 12  1  1  0  2  0.0000000  0  9G27G12G18G31G11G14G25G 9G22
 129378482.953 4 100814406.049 3  24619903.394    24619904.111    24619902.977
        24.900          21.100
 120490229.534 5  93888482.552 5  22928534.731    22928533.663    22928534.474
        35.100          33.000
 113153890.052 6  88171876.044 5  21532459.242    21532457.635    21532458.487
        41.000          35.100
 127034346.467 3  98987802.107 4  24173832.393    24173833.372    24173832.533
        23.000          25.900
 127395420.419 4  99269166.949 3  24242538.401    24242537.213    24242537.963
        24.900          19.900
 110246008.598 7  85905988.915 7  20979113.197    20979111.969    20979112.709
        44.000          42.000
 124218149.083 5  96793352.842 4  23637935.687    23637939.122    23637935.329
        33.000          28.100
 115340556.846 6  89875769.682 5  21948570.521    21948570.010    21948570.079
        39.000          34.000
 106478434.299 8  82970231.762 8  20262156.073    20262152.581    20262154.952
        49.000          50.000
 12  1  1  0  2 30.0000000  0  9G27G12G18G31G11G14G25G 9G22
 129477238.385 3 100891358.324 3  24638696.492    24638696.569    24638695.793
        22.100          19.300
 120434844.789 5  93845325.654 5  22917995.483    22917994.409    22917994.844
        35.100          33.000
 113224439.198 6  88226849.342 5  21545884.445    21545882.693    21545883.614
        41.000          35.100
 126922816.957 4  98900896.037 4  24152609.255    24152609.801    24152608.853
        24.900          24.900
 127367019.248 3  99247036.202 3  24237132.539    24237131.806    24237132.327
        23.000          19.300
 110205300.647 7  85874268.455 7  20971366.842    20971365.523    20971366.230
        44.000          42.000
 124124761.904 5  96720583.648 4  23620164.851    23620168.119    23620163.853
        32.000          29.000
 115430361.834 6  89945747.599 5  21965659.709    21965659.011    21965659.379
        39.000          33.000
 106476593.046 8  82968797.034 8  20261805.776    20261802.172    20261804.613
        49.000          50.000
 12  1  1  0  3  0.0000000  0  9G27G12G18G31G11G14G25G 9G22
 129576061.966 4 100968363.710 3  24657502.876    24657502.156    24657502.181
        28.100          23.800
 120379937.414 6  93802540.725 5  22907547.335    22907545.714    22907546.545
        36.000          33.000
 113295356.596 6  88282109.592 5  21559379.072    21559377.955    21559378.692
        41.000          35.100
 126811429.291 4  98814100.514 3  24131411.556    24131413.556    24131412.341
        24.900          23.800
 127339153.466 3  99225322.660 2  24231829.464    24231828.932    24231829.286
        23.000          17.800
 110164862.761 7  85842758.431 7  20963671.651    20963670.400    20963671.148
        44.000          43.000
 124031576.096 5  96647971.380 4  23602431.727    23602435.061    23602431.445
        33.000          28.100
 115520548.727 6  90016023.109 5  21982821.824    21982821.237    21982821.426
        39.000          34.000
 106475223.858 8  82967730.146 8  20261545.086    20261541.565    20261544.046
        49.000          50.000
 12  1  1  0  3 30.0000000  0  9G27G12G18G31G11G14G25G 9G22
 129674951.917 4 101045420.829 3  24676320.065    24676320.301    24676320.086
        28.100          23.000
 120325509.714 6  93760129.564 5  22897189.083    22897188.009    22897189.086
        36.000          33.000
 113366641.329 6  88337656.102 5  21572944.470    21572942.999    21572943.719
        41.000          35.100
 126700185.351 4  98727416.967 3  24110242.830    24110244.049    24110243.272
        24.900          22.100
 127311823.731 3  99204026.784 2  24226629.075    24226628.550    24226628.553
        23.800          16.100
 110124695.180 7  85811459.029 7  20956027.870    20956026.878    20956027.364
        44.000          43.000
 123938594.963 5  96575518.601 4  23584737.547    23584741.590    23584737.401
        33.000          28.100
 115611114.529 6  90086593.858 5  22000055.894    22000055.362    22000055.473
        39.000          33.000
 106474327.686 8  82967031.850 8  20261374.634    20261370.996    20261373.496
        49.000          50.000
 12  1  1  0  4  0.0000000  0  9G27G12G18G31G11G14G25G 9G22
 129773906.154 4 101122528.034 3  24695150.368    24695150.159    24695150.100
        24.900          22.100
 120271563.871 5  93718093.888 5  22886923.062    22886922.700    22886922.968
        35.100          33.000
 113438292.283 6  88393488.006 5  21586579.452    21586577.765    21586578.591
        41.000          34.000
 126589086.868 3  98640846.802 3  24089101.861    24089102.847    24089101.991
        23.800          23.000
 127285030.723 4  99183149.153 3  24221531.337    24221530.236    24221530.932
        25.900          19.300
 110084797.932 7  85780370.285 7  20948435.865    20948434.618    20948435.312
        44.000          43.000
 123845821.643 5  96503227.762 4  23567084.518    23567087.310    23567083.824
        34.000          29.000
 115702056.339 6  90157457.608 5  22017361.459    22017360.897    22017361.035
        38.000          33.000
 106473905.322 8  82966702.757 8  20261294.318    20261290.626    20261293.166
        49.000          50.000
 12  1  1  0  4 30.0000000  0  9G27G12G18G31G11G14G25G 9G22
 129872922.718 3 101199683.806 2  24713992.841    24713992.225    24713992.175
        23.800          17.800
 120218102.559 5  93676435.775 5  22876751.144    22876749.689    22876750.129
        35.100          34.000
 113510308.180 6  88449604.288 5  21600283.017    21600281.990    21600282.671
        41.000          34.000
 126478135.862 4  98554391.552 3  24067988.944    24067988.834    24067988.741
        24.900          23.000
 127258774.903 4  99162690.109 3  24216534.507    24216533.886    24216534.360
        25.900          19.300
 110045171.506 7  85749492.566 7  20940895.190    20940893.846    20940894.693
        44.000          43.000
 123753259.298 5  96431101.332 4  23549470.218    23549472.966    23549469.523
        33.000          27.100
 115793371.357 6  90228612.161 5  22034737.934    22034737.639    22034737.716
        38.000          33.000
 106473957.465 8  82966743.405 8  20261304.226    20261300.582    20261303.055
        49.000          50.000
 12  1  1  0  5  0.0000000  0  9G27G12G18G31G11G14G25G 9G22
 129971999.757 3 101276886.721 3  24732846.018    24732846.342    24732845.710
        23.000          22.100
 120165128.053 5  93635156.999 5  22866669.686    22866668.829    22866669.347
        35.100          34.000
 113582688.408 6  88506004.473 5  21614056.715    21614055.293    21614056.198
        41.000          34.000
 126367334.767 4  98468053.112 4  24046903.767    24046904.565    24046903.659
        27.100          24.900
 127233056.803 3  99142650.101 2  24211639.963    24211639.827    24211640.043
        23.800          17.800
 110005815.868 7  85718825.849 7  20933406.003    20933404.711    20933405.488
        44.000          43.000
 123660911.102 5  96359141.754 4  23531896.800    23531899.547    23531895.815
        33.000          27.100
 115885056.543 6  90300055.164 5  22052184.994    22052184.790    22052184.787
        38.000          32.000
 106474484.768 8  82967154.313 8  20261404.314    20261400.892    20261403.311
        49.000          50.000
 12  1  1  0  5 30.0000000  0  9G27G12G18G31G11G14G25G 9G22
 130071135.362 4 101354135.247 3  24751710.825    24751711.409    24751710.798
        25.900          23.000
 120112643.246 6  93594259.799 5  22856681.994    22856681.192    22856681.798
        36.000          34.000
 113655431.955 6  88562687.743 5  21627899.926    21627898.093    21627899.041
        41.000          34.000
 126256685.436 4  98381832.947 4  24025847.844    24025848.529    24025847.939
        28.100          24.900
 127207877.492 4  99123029.852 2  24206848.931    24206847.935    24206848.565
        25.900          15.100
 109966731.172 7  85688370.259 7  20925968.487    20925967.155    20925967.947
        44.000          43.000
 123568780.281 5  96287351.581 4  23514364.611    23514367.540    23514363.993
        34.000          27.100
 115977108.751 6  90371784.165 5  22069702.442    22069701.757    22069701.905
        38.000          33.000
 106475487.920 8  82967936.008 8  20261595.258    20261591.738    20261594.132
        49.000          50.000
 12  1  1  0  6  0.0000000  0  9G27G12G18G31G11G14G25G 9G22
 130170327.408 4 101431427.753 3  24770586.512    24770587.161    24770586.565
        27.100          23.800
 120060650.292 6  93553745.866 5  22846789.107    22846787.067    22846788.168
        36.000          34.000
 113728537.540 6  88619653.100 5  21641810.583    21641809.661    21641810.358
        40.000          34.000
 126146189.838 4  98295732.552 4  24004822.183    24004821.887    24004821.819
        29.000          25.900
 127183237.128 3  99103829.585 2  24202159.831    24202159.162    24202159.625
        23.000          17.000
 109927917.633 7  85658125.957 7  20918582.580    20918581.243    20918582.052
        44.000          43.000
 123476869.978 5  96215733.237 4  23496874.536    23496877.638    23496874.304
        34.000          29.000
 116069525.030 6  90443796.840 5  22087288.775    22087288.184    22087288.236
        38.000          33.000
 106476967.814 8  82969089.186 8  20261877.002    20261873.378    20261875.785
        49.000          50.000
 12  1  1  0  6 30.0000000  0  9G27G12G18G31G11G14G25G 9G22
 130269574.100 4 101508762.856 3  24789473.219    24789473.375    24789472.857
        25.900          23.000
 120009151.586 6  93513617.034 5  22836988.628    22836987.014    22836987.781
        36.000          33.000
 113802004.358 6  88676899.960 5  21655790.929    21655789.683    21655790.668
        40.000          33.000
 126035849.903 5  98209753.450 4  23983824.207    23983824.774    23983824.360
        30.100          25.900
 127159136.096 3  99085049.617 3  24197573.851    24197573.272    24197573.331
        23.000          22.100
 109889375.495 7  85628093.134 7  20911248.158    20911246.830    20911247.734
        45.000          43.000
 123385183.368 5  96144289.205 4  23479427.025    23479430.072    23479426.841
        35.100          28.100
 116162302.577 6  90516091.035 5  22104943.630    22104942.950    22104943.193
        38.000          32.000
 106478924.919 8  82970614.216 8  20262249.226    20262245.772    20262248.125
        49.000          50.000
 12  1  1  0  7  0.0000000  0  9G27G12G18G31G11G14G25G 9G22
 130368873.613 3 101586139.105 3  24808368.839    24808369.233    24808368.522
        22.100          19.900
 119958149.543 6  93473875.237 5  22827282.839    22827281.655    22827282.343
        36.000          33.000
 113875831.164 6  88734427.332 5  21669840.398    21669838.481    21669839.610
        40.000          33.000
 125925667.908 5  98123897.427 4  23962857.881    23962858.275    23962857.688
        30.100          29.000
 127135574.668 3  99066690.111 3  24193089.763    24193089.448    24193089.457
        19.300          19.300
 109851105.046 7  85598272.014 7  20903965.553    20903964.210    20903965.086
        44.000          43.000
 123293723.625 5  96073021.983 4  23462023.075    23462025.955    23462021.937
        32.000          28.100
 116255438.550 6  90588664.529 5  22122666.412    22122666.106    22122666.117
        37.000          32.000
 106481360.339 8  82972511.961 8  20262712.697    20262709.236    20262711.533
        49.000          50.000
 12  1  1  0  7 30.0000000  0  9G27G12G18G31G11G14G25G 9G22
 130468224.071 3 101663555.061 2  24827274.595    24827274.775    24827274.486
        23.000          17.800
 119907646.400 6  93434522.187 5  22817672.122    22817671.424    22817672.110
        36.000          34.000
 113950017.041 6  88792234.482 5  21683957.040    21683955.661    21683956.506
        40.000          33.000
 125815645.906 4  98038166.066 4  23941921.289    23941921.542    23941920.970
        27.100          29.000
 127112553.978 3  99048751.957 3  24188708.817    24188708.606    24188708.880
        23.000          21.100
 109813106.237 7  85568662.563 7  20896734.629    20896733.337    20896734.147
        45.000          43.000
 123202493.941 5  96001934.003 4  23444663.012    23444665.209    23444661.778
        33.000          27.100
 116348929.901 6  90661514.917 5  22140457.883    22140456.993    22140457.344
        37.000          32.000
 106484274.471 8  82974782.724 8  20263267.321    20263263.857    20263266.144
        49.000          50.000
 12  1  1  0  8  0.0000000  0  9G27G12G18G31G11G14G25G 9G22
 130567623.663 4 101741009.329 3  24846189.859    24846189.516    24846189.670
        24.900          19.300
 119857644.869 6  93395560.018 5  22808157.130    22808156.609    22808156.928
        36.000          34.000
 114024561.087 6  88850320.712 5  21698142.083    21698141.032    21698141.831
        40.000          34.000
 125705785.572 3  97952560.711 4  23921015.060    23921015.160    23921014.794
        23.800          27.100
 127090073.895 3  99031235.034 3  24184430.751    24184430.969    24184430.382
        21.100          21.100
 109775379.094 7  85539264.803 7  20889555.657    20889554.093    20889555.037
        45.000          43.000
 123111497.453 5  95931027.756 4  23427345.433    23427349.373    23427345.659
        33.000          29.000
 116442773.543 6  90734639.831 5  22158314.926    22158314.902    22158314.551
        37.000          32.000
 106487668.103 8  82977427.117 8  20263912.920    20263909.650    20263911.964
        49.000          50.000
 12  1  1  0  8 30.0000000  0  9G27G12G18G31G11G14G25G 9G22
 130667070.325 4 101818500.278 3  24865114.130    24865114.263    24865113.883
        27.100          19.900
 119808146.868 6  93356990.192 5  22798737.706    22798737.022    22798737.573
        36.000          34.000
 114099461.665 6  88908684.760 5  21712395.384    21712394.116    21712394.841
        40.000          33.000
 125596089.140 4  97867083.071 4  23900140.814    23900141.015    23900140.480
        25.900          29.000
 127068135.241 3  99014140.007 3  24180256.002    24180255.973    24180255.621
        21.100          23.000
 109737923.970 7  85510079.003 7  20882427.974    20882426.605    20882427.425
        45.000          43.000
 123020737.362 5  95860305.709 4  23410075.088    23410078.322    23410074.696
        34.000          29.000
 116536966.801 6  90808037.170 5  22176239.876    22176239.396    22176239.431
        37.000          32.000
 106491541.822 8  82980445.607 8  20264650.170    20264646.723    20264649.087
        49.000          50.000
 12  1  1  0  9  0.0000000  0  9G27G12G18G31G11G14G25G 9G22
 130766562.331 3 101896026.534 3  24884046.511    24884047.468    24884046.528
        21.100          22.100
 119759155.235 6  93318814.930 5  22789414.898    22789414.177    22789414.959
        36.000          34.000
 114174717.938 6  88967325.991 5  21726716.560    21726715.059    21726715.919
        40.000          33.000
 125486558.490 4  97781734.627 4  23879296.687    23879297.745    23879297.117
        24.900          28.100
 127046738.560 2  98997467.293 3  24176184.002    24176184.584    24176183.755
        17.800          23.000
 109700740.965 7  85481105.253 7  20875352.178    20875350.765    20875351.675
        45.000          43.000
 122930216.829 5  95789770.298 4  23392850.110    23392852.715    23392849.230
        34.000          29.000
 116631506.350 6  90881704.342 5  22194229.913    22194229.479    22194229.538
        37.000          32.000
 106495896.505 8  82983838.870 8  20265478.847    20265475.431    20265477.646
        49.000          50.000
 12  1  1  0  9 30.0000000  0  9G27G12G18G31G11G14G25G 9G22
 130866097.731 3 101973586.582 3  24902987.807    24902988.615    24902987.559
        22.100          19.900
 119710672.075 6  93281035.906 5  22780188.579    22780187.936    22780188.681
        36.000          33.000
 114250328.889 6  89026243.582 5  21741104.929    21741103.368    21741104.199
        39.000          33.000
 125377195.773 4  97696517.003 4  23858486.371    23858486.726    23858486.271
        28.100          27.100
 127025883.622 3  98981216.736 3  24172216.746    24172215.782    24172216.118
        21.100          22.100
 109663830.354 7  85452343.749 7  20868328.375    20868326.944    20868327.864
        45.000          43.000
 122839938.996 5  95719423.990 4  23375670.264    23375673.220    23375669.672
        34.000          29.000
 116726389.497 6  90955639.254 5  22212285.806    22212284.937    22212285.403
        37.000          31.000
 106500732.994 8  82987607.573 8  20266399.121    20266395.837    20266397.986
        49.000          50.000
 12  1  1  0 10  0.0000000  0  9G27G12G18G31G11G14G25G 9G22
 130965674.544 4 102051178.918 3  24921937.151    24921937.515    24921936.769
        24.900          22.100
 119662699.567 6  93243654.774 5  22771060.165    22771059.149    22771059.884
        37.000          34.000
 114326293.355 6  89085436.614 5  21755560.145    21755558.845    21755559.666
        39.000          33.000
 125268002.982 4  97611431.760 3  23837707.734    23837707.297    23837707.605
        28.100          21.100
 127005571.186 2  98965388.881 3  24168350.495    24168350.437    24168350.352
        17.000          23.000
 109627192.287 7  85423794.617 7  20861356.218    20861355.005    20861355.770
        45.000          44.000
 122749907.054 5  95649269.300 4  23358536.845    23358540.528    23358536.813
        34.000          29.000
 116821613.517 6  91029839.800 5  22230406.334    22230406.334    22230405.929
        37.000          31.000
 106506051.020 8  82991751.497 8  20267411.228    20267407.771    20267410.093
        49.000          50.000
 12  1  1  0 10 30.0000000  0  9G27G12G18G31G11G14G25G 9G22
 131065291.175 4 102128802.283 3  24940893.100    24940893.871    24940892.722
        25.900          19.300
 119615239.904 6  93206673.250 5  22762028.619    22762027.591    22762028.556
        37.000          33.000
 114402610.533 6  89144904.500 5  21770083.129    21770081.487    21770082.406
        39.000          33.000
 125158982.070 5  97526480.442 3  23816962.068    23816961.915    23816961.828
        31.000          23.000
 126985801.443 3  98949983.917 3  24164588.607    24164588.804    24164588.076
        22.100          22.100
 109590826.964 7  85395458.023 7  20854436.171    20854434.877    20854435.708
        45.000          44.000
 122660124.158 5  95579308.668 4  23341451.927    23341455.233    23341451.845
        35.100          28.100
 116917175.390 6  91104303.587 5  22248590.867    22248590.867    22248590.429
        37.000          32.000
 106511851.785 8  82996271.581 8  20268515.114    20268511.551    20268513.953
        49.000          50.000
 12  1  1  0 11  0.0000000  0  9G27G12G18G31G11G14G25G 9G22
 131164945.831 4 102206455.315 3  24959856.736    24959857.464    24959856.208
        25.900          19.300
 119568295.475 6  93170093.220 5  22753096.006    22753094.406    22753095.476
        36.000          33.000
 114479278.976 6  89204646.115 5  21784672.377    21784671.151    21784671.849
        40.000          32.000
 125050135.208 5  97441664.734 4  23796248.932    23796248.596    23796248.664
        30.100          24.900
 126966574.724 3  98935002.098 3  24160930.032    24160929.564    24160930.296
        23.000          22.100
 109554734.799 7  85367334.273 7  20847568.072    20847566.721    20847567.558
        44.000          44.000
 122570593.549 5  95509544.602 5  23324415.308    23324418.308    23324414.620
        34.000          30.100
 117013072.012 6  91179028.240 5  22266839.214    22266838.606    22266839.039
        37.000          31.000
 106518135.933 8  83001168.325 8  20269710.946    20269707.398    20269709.784
        49.000          50.000
 12  1  1  0 11 30.0000000  0  9G27G12G18G31G11G14G25G 9G22
 131264636.619 3 102284136.463 3  24978826.612    24978827.757    24978826.669
        23.000          21.100
 119521868.410 6  93133916.312 5  22744260.870    22744259.897    22744260.739
        37.000          34.000
 114556297.405 6  89264660.423 5  21799328.552    21799327.366    21799328.082
        40.000          32.000
 124941464.140 4  97356986.066 4  23775569.055    23775569.323    23775569.211
        28.100          27.100
 126947891.439 3  98920443.719 3  24157374.599    24157374.439    24157374.333
        22.100          22.100
 109518915.782 7  85339423.362 7  20840751.793    20840750.516    20840751.309
        44.000          44.000
 122481318.313 5  95439979.558 4  23307427.025    23307429.625    23307426.364
        35.100          29.000
 117109300.614 6  91254011.572 5  22285150.945    22285150.791    22285150.492
        36.000          31.000
 106524903.819 8  83006442.012 8  20270998.519    20270995.267    20270997.524
        49.000          50.000
 12  1  1  0 12  0.0000000  0  9G27G12G18G31G11G14G25G 9G22
 131364361.701 3 102361844.340 3  24997804.189    24997804.878    24997804.015
        23.000          23.000
 119475961.032 6  93098144.373 5  22735524.289    22735524.093    22735524.608
        37.000          34.000
 114633664.978 6  89324946.779 5  21814051.574    21814049.889    21814050.770
        39.000          32.000
 124832971.097 4  97272446.105 4  23754923.635    23754924.058    23754923.441
        29.000          28.100
 126929751.710 3  98906308.891 3  24153922.879    24153922.471    24153922.781
        21.100          21.100
 109483369.934 7  85311725.316 7  20833987.470    20833986.381    20833987.067
        44.000          44.000
 122392301.607 6  95370615.941 4  23290487.468    23290490.219    23290486.921
        36.000          29.000
 117205858.156 6  91329251.207 5  22303525.863    22303525.863    22303525.152
        36.000          31.000
 106532156.113 8  83012093.156 8  20272378.778    20272375.239    20272377.614
        49.000          50.000
 12  1  1  0 12 30.0000000  0  9G27G12G18G31G11G14G25G 9G22
 131464119.246 3 102439577.523 3  25016788.246    25016787.641    25016787.286
        21.100          21.100
 119430575.423 6  93062779.013 5  22726888.625    22726887.217    22726888.014
        37.000          34.000
 114711380.498 6  89385504.269 5  21828839.986    21828838.842    21828839.412
        39.000          32.000
 124724658.018 4  97188046.367 4  23734311.951    23734312.475    23734312.014
        27.100          28.100
 126912155.839 3  98892597.852 3  24150574.843    24150573.842    24150574.352
        23.000          22.100
 109448097.387 7  85284240.235 7  20827275.541    20827274.221    20827274.933
        44.000          44.000
 122303546.627 6  95301456.280 5  23273597.442    23273600.876    23273597.257
        36.000          31.000
 117302741.757 6  91404744.932 5  22321961.625    22321961.134    22321961.319
        36.000          30.100
 106539893.213 8  83018122.074 8  20273851.230    20273847.465    20273849.951
        49.000          50.000
 12  1  1  0 13  0.0000000  0  9G27G12G18G31G11G14G25G 9G22
 131563907.522 3 102517334.634 3  25035776.550    25035776.687    25035775.996
        23.000          22.100
 119385713.824 6  93027821.967 5  22718351.288    22718350.228    22718351.124
        37.000          34.000
 114789442.671 6  89446331.900 5  21843694.842    21843693.712    21843694.112
        39.000          33.000
 124616526.687 4  97103788.271 4  23713734.694    23713735.753    23713734.993
        27.100          28.100
 126895104.007 3  98879310.738 3  24147329.901    24147328.632    24147329.527
        19.900          22.100
 109413098.353 7  85256968.283 7  20820615.387    20820614.077    20820614.899
        45.000          44.000
 122215056.510 5  95232502.994 5  23256758.614    23256761.478    23256758.020
        35.100          30.100
 117399948.402 5  91480490.355 5  22340459.534    22340459.058    22340458.904
        35.100          30.100
 106548115.687 8  83024529.210 8  20275415.675    20275412.170    20275414.625
        49.000          50.000
 12  1  1  0 13 30.0000000  0  9G27G12G18G31G11G14G25G 9G22
 131663724.485 4 102595114.126 3  25054772.099    25054771.031    25054771.289
        24.900          19.300
 119341378.654 6  92993275.120 5  22709914.258    22709913.476    22709914.072
        37.000          34.000
 114867850.449 6  89507428.825 5  21858615.574    21858614.284    21858614.856
        39.000          33.000
 124508579.141 4  97019673.357 4  23693193.296    23693193.296    23693193.230
        27.100          27.100
 126878596.551 3  98866447.788 3  24144187.809    24144187.977    24144187.710
        21.100          23.000
 109378373.060 7  85229909.637 7  20814007.484    20814006.086    20814006.950
        44.000          44.000
 122126834.390 5  95163758.530 4  23239970.539    23239973.299    23239969.784
        35.100          29.000
 117497475.232 6  91556485.295 5  22359018.625    22359018.151    22359018.118
        37.000          31.000
 106556824.288 8  83031315.135 8  20277072.680    20277069.426    20277071.743
        49.000          50.000
 12  1  1  0 14  0.0000000  0  9G27G12G18G31G11G14G25G 9G22
 131763568.516 3 102672914.698 3  25073772.857    25073770.581    25073771.492
        22.100          19.300
 119297571.349 6  92959139.601 5  22701577.616    22701577.285    22701578.071
        37.000          34.000
 114946602.206 6  89568793.776 5  21873601.510    21873600.339    21873600.848
        39.000          32.000
 124400817.495 4  96935703.335 4  23672686.999    23672687.494    23672686.739
        27.100          27.100
 126862633.714 3  98854009.239 3  24141150.093    24141150.113    24141149.646
        21.100          23.000
 109343921.587 7  85203064.355 7  20807451.576    20807450.249    20807451.110
        45.000          44.000
 122038883.436 5  95095225.380 4  23223233.288    23223236.783    23223233.086
        35.100          29.000
 117595319.414 6  91632727.504 5  22377637.556    22377636.646    22377636.937
        36.000          30.100
 106566019.272 8  83038480.054 8  20278822.564    20278819.243    20278821.527
        49.000          50.000
 12  1  1  0 14 30.0000000  0  9G27G12G18G31G11G14G25G 9G22
 131863437.888 4 102750735.008 3  25092776.636    25092775.028    25092775.640
        24.900          21.100
 119254294.597 6  92925417.495 5  22693342.692    22693341.701    22693342.880
        37.000          34.000
 115025697.234 6  89630426.212 5  21888652.303    21888651.688    21888652.023
        39.000          32.000
 124293243.579 4  96851879.545 4  23652215.854    23652216.776    23652216.099
        29.000          28.100
 126847215.434 3  98841995.019 3  24138216.539    24138216.128    24138216.147
        21.100          22.100
 109309744.780 7  85176433.098 7  20800948.066    20800946.553    20800947.503
        44.000          44.000
 121951206.812 5  95026906.000 5  23206549.992    23206552.448    23206549.403
        35.100          30.100
 117693477.931 6  91709214.671 5  22396316.310    22396316.010    22396316.023
        36.000          30.100
 106575701.409 8  83046024.561 8  20280665.298    20280661.639    20280664.032
        49.000          50.000
 12  1  1  0 15  0.0000000  0  9G27G12G18G31G11G14G25G 9G22
 131963330.772 3 102828573.659 3  25111785.001    25111783.966    25111784.345
        22.100          19.300
 119211550.365 6  92892110.346 5  22685208.921    22685207.548    22685208.903
        37.000          34.000
 115105134.211 6  89692325.145 5  21903769.192    21903767.895    21903768.528
        39.000          32.000
 124185859.321 5  96768203.561 5  23631782.043    23631782.200    23631781.846
        30.100          30.100
 126832341.938 3  98830405.313 3  24135386.765    24135385.896    24135386.529
        23.800          23.000
 109275841.967 7  85150015.334 7  20794496.571    20794495.038    20794495.998
        45.000          44.000
 121863807.653 6  94958802.811 5  23189918.636    23189920.748    23189917.796
        37.000          30.100
 117791947.962 5  91785944.556 5  22415054.370    22415054.047    22415054.194
        35.100          31.000
 106585870.971 8  83053948.883 8  20282600.294    20282596.847    20282599.198
        49.000          50.000
 12  1  1  0 15 30.0000000  0 10G27G12G18G31G11G14G25G 1G 9G22
 132063245.454 3 102906429.256 3  25130797.105    25130796.922    25130796.872
        23.000          21.100
 119169340.623 6  92859219.664 5  22677176.483    22677175.161    22677176.643
        37.000          34.000
 115184911.761 6  89754489.440 5  21918950.786    21918949.174    21918949.944
        39.000          32.000
 124078666.869 5  96684677.063 5  23611383.919    23611384.339    23611383.787
        31.000          31.000
 126818013.473 3  98819240.310 3  24132659.788    24132658.889    24132659.308
        23.000          19.300
 109242213.518 7  85123811.363 7  20788097.159    20788095.718    20788096.565
        44.000          44.000
 121776689.062 5  94890918.266 5  23173340.174    23173342.645    23173339.262
        35.100          30.100
 129376861.903 3 100813126.964 3  24619608.928    24619612.123    24619608.242
        23.000          23.000
 117890726.648 5  91862914.952 5  22433851.454    22433851.319    22433851.131
        35.100          31.000
 106596528.450 8  83062253.406 8  20284628.217    20284624.925    20284627.263
        49.000          49.000
 12  1  1  0 16  0.0000000  0 10G27G12G18G31G11G14G25G 1G 9G22
 132163180.114 3 102984300.448 3  25149814.270    25149813.420    25149813.802
        23.000          19.300
 119127667.620 6  92826747.227 5  22669246.633    22669245.434    22669246.293
        37.000          34.000
 115265028.731 6  89816918.223 5  21934195.452    21934194.844    21934195.343
        38.000          31.000
 123971668.044 5  96601301.403 5  23591022.436    23591022.936    23591022.547
        31.000          30.100
 126804229.807 3  98808499.812 3  24130036.649    24130035.809    24130036.217
        23.000          19.900
 109208859.731 7  85097821.413 7  20781750.101    20781748.621    20781749.573
        44.000          44.000
 121689854.236 6  94823254.833 5  23156815.106    23156818.499    23156815.014
        36.000          31.000
 129305203.350 3 100757289.125 3  24605972.691    24605975.773    24605972.326
        23.000          23.800
 117989810.964 5  91940123.518 5  22452706.647    22452706.017    22452706.109
        35.100          30.100
 106607674.333 8  83070938.502 8  20286749.347    20286745.932    20286748.304
        49.000          50.000
 12  1  1  0 16 30.0000000  0 10G27G12G18G31G11G14G25G 1G 9G22
 132263132.974 3 103062185.845 2  25168834.042    25168833.896    25168833.911
        22.100          16.100
 119086533.097 6  92794694.395 5  22661419.055    22661417.691    22661418.750
        37.000          34.000
 115345483.863 6  89879610.527 5  21949505.801    21949505.041    21949505.580
        38.000          32.000
 123864864.853 5  96518078.213 4  23570698.764    23570698.556    23570698.673
        31.000          28.100
 126790991.003 4  98798183.901 3  24127517.163    24127516.651    24127516.962
        24.900          19.900
 109175780.715 7  85072045.571 7  20775455.177    20775453.884    20775454.752
        44.000          44.000
 121603306.230 6  94755814.924 5  23140345.785    23140348.782    23140345.555
        36.000          31.000
 129233968.914 3 100701781.788 3  24592417.435    24592420.267    24592416.909
        21.100          23.800
 118089197.965 5  92017567.929 5  22471619.724    22471619.056    22471619.110
        35.100          31.000
 106619309.035 8  83080004.498 8  20288963.183    20288959.920    20288962.221
        49.000          50.000
 12  1  1  0 17  0.0000000  0 10G27G12G18G31G11G14G25G 1G 9G22
 132363102.364 3 103140084.087 3  25187858.156    25187857.473    25187858.047
        19.300          19.900
 119045939.370 6  92763062.952 5  22653693.809    22653693.011    22653693.752
        37.000          34.000
 115426275.876 6  89942565.311 5  21964880.755    21964879.296    21964879.698
        37.000          32.000
 123758259.165 4  96435008.918 4  23550412.511    23550412.515    23550411.957
        28.100          29.000
 126778297.223 3  98788292.679 3  24125102.003    24125101.302    24125101.682
        23.800          21.100
 109142976.640 7  85046483.967 7  20769212.833    20769211.493    20769212.370
        44.000          44.000
 121517048.205 6  94688600.940 5  23123932.122    23123934.843    23123931.372
        37.000          32.000
 129163160.973 3 100646606.778 4  24578942.899    24578946.273    24578942.653
        23.000          25.900
 118188884.858 5  92095246.026 5  22490588.481    22490589.024    22490588.446
        34.000          31.000
 106631432.902 8  83089451.665 8  20291270.594    20291267.037    20291269.380
        49.000          49.000
 12  1  1  0 17 30.0000000  0 10G27G12G18G31G11G14G25G 1G 9G22
 132463086.627 3 103217993.939 2  25206885.389    25206884.028    25206884.163
        21.100          17.800
 119005888.364 6  92731854.421 5  22646072.381    22646071.791    22646072.512
        37.000          35.100
 115507403.394 6  90005781.514 5  21980317.990    21980317.293    21980317.482
        37.000          32.000
 123651853.091 4  96352095.192 4  23530163.488    23530163.633    23530163.738
        28.100          27.100
 126766148.610 3  98778826.237 2  24122790.080    24122788.949    24122789.819
        22.100          17.000
 109110447.908 7  85021136.908 7  20763022.792    20763021.562    20763022.314
        44.000          44.000
 121431083.297 6  94621615.360 5  23107572.840    23107575.920    23107572.301
        36.000          31.000
 129092781.666 3 100591765.794 4  24565549.929    24565552.845    24565549.636
        21.100          25.900
 118288868.700 5  92173155.528 4  22509615.780    22509614.528    22509615.300
        35.100          29.000
 106644046.526 8  83099280.453 8  20293670.705    20293667.422    20293669.667
        49.000          49.000
 12  1  1  0 18  0.0000000  0 10G27G12G18G31G11G14G25G 1G 9G22
 132563083.953 3 103295913.938 3  25225912.945    25225913.100    25225912.401
        21.100          19.900
 118966381.607 6  92701069.983 5  22638554.377    22638553.660    22638554.636
        37.000          34.000
 115588865.431 6  90069258.374 5  21995819.901    21995819.019    21995819.405
        37.000          31.000
 123545648.490 4  96269338.445 4  23509953.048    23509953.363    23509953.281
        29.000          27.100
 126754545.020 4  98769784.498 2  24120582.647    24120581.098    24120582.274
        24.900          17.800
 109078194.476 7  84996004.379 7  20756885.370    20756883.975    20756884.789
        44.000          44.000
 121345414.576 6  94554860.572 5  23091270.709    23091273.733    23091270.342
        36.000          31.000
 129022833.252 3 100537260.573 3  24552238.875    24552241.828    24552239.205
        22.100          19.300
 118389146.282 5  92251293.901 5  22528697.690    22528697.545    22528697.246
        35.100          31.000
 106657150.166 8  83109491.070 8  20296164.460    20296161.004    20296163.308
        49.000          50.000
 12  1  1  0 18 30.0000000  0  9G12G18G31G11G14G25G 1G 9G22
 118927421.435 6  92670711.431 5  22631140.707    22631139.800    22631140.630
        37.000          35.100
 115670660.361 6  90132994.646 5  22011385.933    22011384.173    22011384.878
        37.000          31.000
 123439647.292 5  96186740.195 4  23489781.601    23489782.091    23489781.452
        30.100          29.000
 126743486.463 3  98761167.450 3  24118477.317    24118476.812    24118477.178
        23.000          19.300
 109046216.563 7  84971086.532 7  20750800.273    20750798.650    20750799.758
        45.000          44.000
 121260045.148 6  94488338.988 5  23075025.816    23075028.432    23075024.949
        36.000          30.100
 128953318.063 3 100483092.828 2  24539010.286    24539013.716    24539010.279
        19.300          17.800
 118489715.314 5  92329659.379 4  22547835.174    22547834.641    22547834.835
        35.100          29.000
 106670744.094 8  83120083.736 8  20298751.271    20298747.839    20298750.188
        49.000          49.000
 12  1  1  0 19  0.0000000  0  9G12G18G31G11G14G25G 1G 9G22
 118889009.985 6  92640780.475 5  22623831.615    22623830.240    22623831.405
        37.000          35.100
 115752787.086 6  90196989.456 5  22027013.156    22027012.407    22027012.757
        37.000          31.000
 123333851.414 5  96104301.955 5  23469649.449    23469649.842    23469649.530
        32.000          30.100
 126732972.839 3  98752975.011 2  24116477.200    24116475.851    24116476.782
        23.800          17.000
 109014514.255 7  84946383.444 7  20744767.450    20744765.859    20744766.927
        44.000          44.000
 121174978.156 6  94422053.056 5  23058837.853    23058840.324    23058837.311
        37.000          30.100
 128884238.264 3 100429264.425 3  24525865.957    24525868.490    24525865.178
        19.300          19.300
 118590572.744 5  92408249.584 4  22567027.859    22567027.120    22567027.401
        34.000          29.000
 106684828.727 8  83131058.770 8  20301431.620    20301428.005    20301430.466
        49.000          49.000
 12  1  1  0 19 30.0000000  0  9G12G18G31G11G14G25G 1G 9G22
 118851149.018 6  92611278.454 5  22616626.605    22616625.189    22616626.355
        37.000          34.000
 115835244.519 6  90261241.975 5  22042704.157    22042703.366    22042703.964
        37.000          30.100
 123228262.801 5  96022025.217 5  23449556.471    23449557.053    23449556.651
        31.000          30.100
 126723004.145 3  98745207.249 3  24114579.963    24114579.518    24114579.859
        23.800          21.100
 108983087.951 7  84921895.437 7  20738787.127    20738785.650    20738786.601
        44.000          44.000
 121090216.678 6  94356005.153 5  23042708.024    23042710.776    23042707.830
        37.000          30.100
 128815596.093 2 100375777.009 3  24512803.108    24512806.100    24512802.701
        17.800          19.300
 118691715.542 5  92487062.171 4  22586274.845    22586273.887    22586274.297
        34.000          28.100
 106699404.480 8  83142416.498 8  20304205.296    20304201.712    20304204.159
        49.000          49.000
 12  1  1  0 20  0.0000000  0  9G12G18G31G11G14G25G 1G 9G22
 118813840.011 6  92582206.518 5  22609526.925    22609525.701    22609526.773
        37.000          34.000
 115918031.009 6  90325750.881 5  22058458.852    22058457.286    22058457.867
        37.000          30.100
 123122883.158 5  95939911.313 4  23429503.413    23429503.632    23429503.319
        32.000          29.000
 126713580.297 3  98737864.028 2  24112786.190    24112785.679    24112786.194
        22.100          17.800
 108951937.602 7  84897622.470 7  20732859.416    20732857.940    20732858.842
        44.000          45.000
 121005763.857 6  94290197.800 5  23026636.639    23026640.299    23026636.533
        37.000          32.000
 128747393.754 3 100322632.331 3  24499824.424    24499827.575    24499824.742
        19.900          21.100
 118793140.594 5  92566094.683 4  22605574.917    22605574.727    22605574.684
        34.000          29.000
 106714471.828 8  83154157.282 8  20307072.403    20307068.926    20307071.302
        49.000          49.000
 12  1  1  0 20 30.0000000  0  9G12G18G31G11G14G25G 1G 9G22
 118777085.161 6  92553566.409 5  22602532.568    22602531.920    22602532.539
        37.000          35.100
 116001145.338 6  90390515.251 5  22074274.438    22074273.530    22074273.959
        37.000          31.000
 123017714.460 5  95857961.777 4  23409490.926    23409490.465    23409490.633
        30.100          29.000
 126704701.017 3  98730945.153 2  24111096.938    24111096.079    24111096.728
        23.800          17.800
 108921063.518 7  84873564.780 7  20726984.189    20726982.755    20726983.649
        44.000          45.000
 120921622.815 6  94224633.392 5  23010626.475    23010628.574    23010625.374
        37.000          31.000
 128679633.413 3 100269832.093 3  24486930.678    24486933.285    24486930.818
        23.800          19.900
 118894845.454 5  92645345.218 4  22624929.041    22624928.777    22624928.608
        34.000          29.000
 106730030.740 8  83166281.102 8  20310033.275    20310029.646    20310032.133
        49.000          49.000
 12  1  1  0 21  0.0000000  0  9G12G18G31G11G14G25G 1G 9G22
 118740886.153 6  92525359.418 5  22595643.912    22595643.459    22595643.926
        37.000          35.100
 116084586.370 6  90455534.185 5  22090152.324    22090152.011    22090152.028
        36.000          31.000
 122912758.646 5  95776178.134 4  23389517.829    23389517.806    23389517.709
        30.100          29.000
 126696366.426 4  98724450.662 3  24109511.202    24109509.945    24109510.615
        25.900          19.300
 108890465.716 7  84849722.370 7  20721161.438    20721160.202    20721161.058
        44.000          45.000
 120837796.598 6  94159314.311 5  22994674.110    22994677.129    22994673.674
        38.000          32.000
 128612317.322 3 100217377.981 3  24474120.606    24474123.581    24474120.568
        21.100          19.900
 118996827.025 5  92724811.384 4  22644336.074    22644334.643    22644335.382
        35.100          28.100
 106746081.737 8  83178788.359 8  20313087.661    20313083.989    20313086.533
        49.000          49.000
 12  1  1  0 21 30.0000000  0  9G12G18G31G11G14G25G 1G 9G22
 118705244.688 6  92497586.884 5  22588861.366    22588860.709    22588861.360
        37.000          35.100
 116168352.503 6  90520806.448 5  22106093.302    22106091.910    22106092.250
        36.000          30.100
 122808017.770 4  95694561.954 4  23369585.746    23369586.063    23369586.065
        29.000          28.100
 126688576.178 3  98718380.362 2  24108028.319    24108027.245    24108028.067
        23.800          16.100
 108860144.686 7  84826095.628 7  20715391.719    20715390.252    20715391.232
        44.000          45.000
 120754288.322 6  94094242.973 5  22978783.027    22978785.705    22978782.613
        38.000          31.000
 128545447.502 3 100165271.685 3  24461396.581    24461399.296    24461395.925
        23.000          23.800
 119099082.569 5  92804491.025 5  22663793.878    22663793.950    22663793.571
        33.000          30.100
 106762625.108 8  83191679.286 8  20316235.702    20316232.096    20316234.609
        49.000          49.000
 12  1  1  0 22  0.0000000  0  9G12G18G31G11G14G25G 1G 9G22
 118670162.847 6  92470250.421 5  22582185.752    22582184.777    22582185.649
        37.000          35.100
 116252442.263 6  90586330.906 5  22122094.778    22122093.806    22122094.113
        36.000          30.100
 122703493.750 5  95613114.752 5  23349696.010    23349695.806    23349696.203
        33.000          30.100
 126681330.173 3  98712734.160 2  24106649.496    24106648.311    24106649.008
        23.000          12.600
 108830100.368 7  84802684.490 7  20709674.515    20709672.932    20709673.974
        44.000          45.000
 120671101.019 6  94029421.759 5  22962953.510    22962955.613    22962952.687
        38.000          31.000
 128479026.202 3 100113514.865 2  24448756.300    24448759.073    24448755.689
        23.800          17.800
 119201609.043 5  92884381.788 4  22683304.054    22683303.573    22683303.665
        34.000          28.100
 106779661.033 8  83204954.027 8  20319477.534    20319473.959    20319476.498
        49.000          49.000
 12  1  1  0 22 30.0000000  0  9G12G18G31G11G14G25G 1G 9G22
 118635642.418 6  92443351.430 5  22575616.988    22575615.489    22575616.941
        38.000          35.100
 116336854.557 6  90652106.697 5  22138157.364    22138156.988    22138157.362
        36.000          30.100
 122599188.221 5  95531837.803 5  23329847.553    23329847.214    23329847.599
        33.000          30.100
 126674628.120 3  98707511.785 2  24105374.612    24105373.039    24105374.179
        23.800          15.100
 108800332.949 7  84779489.112 7  20704009.736    20704008.313    20704009.213
        44.000          45.000
 120588237.807 6  93964853.070 5  22947184.357    22947187.065    22947184.155
        38.000          32.000
 128413055.511 3 100062109.154 3  24436202.223    24436205.536    24436202.191
        21.100          21.100
 119304403.817 5  92964481.611 4  22702865.951    22702864.916    22702865.451
        34.000          28.100
 106797189.674 8  83218612.709 8  20322813.191    20322809.580    20322812.107
        49.000          49.000
 12  1  1  0 23  0.0000000  0  9G12G18G31G11G14G25G 1G 9G22
 118601685.000 6  92416891.139 5  22569154.931    22569153.797    22569154.951
        38.000          35.100
 116421587.933 6  90718132.666 5  22154282.478    22154281.399    22154281.801
        36.000          30.100
 122495103.291 5  95450732.738 5  23310040.721    23310040.553    23310040.866
        33.000          30.100
 126668469.847 4  98702713.193 2  24104202.499    24104200.859    24104202.407
        24.900          17.000
 108770842.679 7  84756509.688 7  20698397.989    20698396.446    20698397.420
        44.000          45.000
 120505701.683 6  93900539.266 5  22931477.915    22931481.019    22931477.839
        38.000          32.000
 128347537.644 4 100011056.321 4  24423734.890    24423737.620    24423734.599
        24.900          24.900
 119407464.269 5  93044788.464 4  22722476.828    22722476.508    22722476.335
        32.000          27.100
 106815211.469 8  83232655.669 8  20326242.596    20326239.048    20326241.382
        49.000          49.000
 12  1  1  0 23 30.0000000  0  9G12G18G31G11G14G25G 1G 9G22
 118568292.329 6  92390870.907 5  22562800.655    22562799.141    22562800.666
        38.000          35.100
 116506640.658 6  90784407.459 5  22170467.460    22170466.376    22170466.858
        36.000          31.000
 122391240.858 5  95369801.077 5  23290276.615    23290276.330    23290276.369
        31.000          31.000
 126662855.023 4  98698338.003 3  24103134.050    24103132.916    24103133.902
        24.900          19.300
 108741629.658 7  84733746.304 7  20692838.883    20692837.406    20692838.390
        44.000          45.000
 120423495.734 6  93836482.733 5  22915835.816    22915837.866    22915834.858
        38.000          32.000
 128282474.621 3  99960357.879 3  24411353.879    24411356.816    24411353.294
        23.800          23.800
 119510787.332 5  93125299.929 4  22742139.200    22742138.654    22742138.657
        34.000          29.000
 106833726.337 8  83247082.839 8  20329765.855    20329762.336    20329764.743
        49.000          49.000
 12  1  1  0 24  0.0000000  0  9G12G18G31G11G14G25G 1G 9G22
 118535465.962 6  92365291.938 5  22556553.878    22556552.531    22556553.999
        38.000          35.100
 116592011.909 6  90850930.465 5  22186712.718    22186712.047    22186712.322
        36.000          30.100
 122287602.492 5  95289043.991 5  23270554.384    23270554.219    23270554.231
        31.000          31.000
 126657783.285 3  98694386.047 2  24102168.369    24102167.900    24102168.330
        23.800          17.000
 108712694.051 7  84711199.087 7  20687332.633    20687331.244    20687332.048
        44.000          45.000
 120341623.018 6  93772685.833 5  22900256.013    22900257.600    22900254.906
        37.000          31.000
 128217868.578 4  99910015.571 4  24399059.678    24399062.638    24399059.125
        24.900          25.900
 119614369.905 5  93206013.611 4  22761849.844    22761849.276    22761849.463
        34.000          27.100
 106852734.973 8  83261894.760 8  20333383.027    20333379.519    20333382.020
        49.000          49.000
 12  1  1  0 24 30.0000000  0  9G12G18G31G11G14G25G 1G 9G22
 118503207.760 6  92340155.709 5  22550415.238    22550414.276    22550415.309
        38.000          35.100
 116677700.132 5  90917700.452 4  22203019.324    22203017.838    22203018.405
        35.100          29.000
 122184189.906 5  95208462.828 5  23250875.581    23250875.453    23250875.373
        31.000          30.100
 126653254.521 3  98690857.165 2  24101307.156    24101305.794    24101306.641
        23.800          17.000
 108684036.463 7  84688868.514 7  20681878.974    20681877.918    20681878.568
        44.000          45.000
 120260086.608 6  93709151.035 5  22884739.248    22884742.029    22884738.870
        37.000          32.000
 128153721.543 4  99860030.917 4  24386853.015    24386855.294    24386852.577
        28.100          27.100
 119718209.475 5  93286927.548 4  22781609.964    22781609.647    22781609.348
        33.000          28.100
 106872237.283 8  83277091.357 8  20337094.220    20337090.630    20337093.169
        49.000          49.000
 12  1  1  0 25  0.0000000  0  9G12G18G31G11G14G25G 1G 9G22
 118471519.435 6  92315463.529 5  22544385.289    22544384.170    22544385.164
        38.000          34.000
 116763703.706 6  90984716.178 4  22219385.097    22219383.912    22219384.476
        36.000          29.000
 122081005.603 5  95128059.569 5  23231239.993    23231240.211    23231240.161
        31.000          31.000
 126649268.486 3  98687751.175 3  24100547.819    24100547.474    24100547.929
        23.000          19.900
 108655656.666 7  84666754.400 7  20676478.634    20676477.371    20676478.279
        44.000          45.000
 120178889.518 6  93645880.615 5  22869288.238    22869290.534    22869287.553
        39.000          32.000
 128090035.621 4  99810405.545 4  24374733.854    24374736.403    24374733.418
        27.100          25.900
 119822303.085 5  93368039.459 4  22801418.354    22801417.959    22801417.738
        32.000          28.100
 106892233.383 8  83292672.725 8  20340899.504    20340895.755    20340898.297
        49.000          49.000
 12  1  1  0 25 30.0000000  0  9G12G18G31G11G14G25G 1G 9G22
 118440402.483 6  92291216.584 5  22538463.803    22538462.654    22538463.725
        37.000          35.100
 116850021.397 5  91051976.657 4  22235810.430    22235809.671    22235810.018
        35.100          29.000
 121978051.176 5  95047835.447 5  23211648.253    23211648.493    23211648.281
        32.000          32.000
 126645824.722 4  98685067.734 3  24099892.964    24099892.240    24099892.537
        24.900          19.300
 108627554.584 7  84644856.686 7  20671131.091    20671129.690    20671130.630
        44.000          45.000
 120098034.802 6  93582876.969 5  22853902.492    22853904.362    22853901.473
        39.000          32.000
 128026812.841 4  99761141.084 4  24362702.972    24362705.851    24362702.763
        25.900          27.100
 119926648.002 5  93449347.171 4  22821274.376    22821274.053    22821274.107
        34.000          28.100
 106912723.092 8  83308638.726 8  20344798.576    20344794.880    20344797.372
        49.000          49.000
 12  1  1  0 26  0.0000000  0  9G12G18G31G11G14G25G 1G 9G22
 118409858.348 6  92267415.991 5  22532651.089    22532650.249    22532651.259
        38.000          35.100
 116936651.753 5  91119480.795 4  22252295.657    22252295.021    22252295.184
        35.100          29.000
 121875328.355 5  94967791.768 5  23192100.580    23192100.798    23192100.569
        32.000          30.100
 126642922.612 4  98682806.361 2  24099341.002    24099339.820    24099340.534
        25.900          17.800
 108599730.768 7  84623175.809 7  20665836.443    20665834.914    20665835.854
        44.000          45.000
 120017525.439 6  93520142.442 5  22838581.104    22838583.978    22838580.778
        39.000          32.000
 127964055.273 2  99712239.126 4  24350759.855    24350763.240    24350759.735
        17.800          27.100
 120031241.249 5  93530848.399 4  22841177.347    22841177.543    22841177.315
        33.000          28.100
 106933707.129 8  83324989.923 8  20348791.653    20348788.067    20348790.419
        49.000          49.000
 12  1  1  0 26 30.0000000  0  9G12G18G31G11G14G25G 1G 9G22
 118379888.993 6  92244063.290 5  22526948.721    22526947.240    22526948.447
        38.000          35.100
 117023593.296 6  91187227.398 4  22268840.598    22268839.539    22268839.885
        36.000          29.000
 121772839.199 5  94887930.149 5  23172597.464    23172597.716    23172597.675
        33.000          31.000
 126640562.094 3  98680967.014 2  24098891.286    24098890.558    24098890.899
        23.000          17.800
 108572185.421 7  84601711.922 7  20660594.614    20660593.198    20660594.107
        44.000          45.000
 119937364.525 6  93457679.427 5  22823327.007    22823329.760    22823326.539
        38.000          33.000
 127901764.916 3  99663701.213 4  24338905.856    24338910.233    24338905.669
        19.300          28.100
 120136080.175 5  93612541.063 4  22861128.341    22861127.913    22861128.053
        33.000          29.000
 106955185.503 8  83341726.314 8  20352878.992    20352875.290    20352877.561
        48.000          48.000
 12  1  1  0 27  0.0000000  0  9G12G18G31G11G14G25G 1G 9G22
 118350495.594 6  92221159.364 5  22521355.547    22521353.736    22521355.207
        38.000          34.000
 117110844.754 6  91255215.513 4  22285443.786    22285442.903    22285443.332
        36.000          28.100
 121670585.420 5  94808251.961 5  23153139.254    23153139.406    23153139.397
        34.000          31.000
 126638742.486 4  98679549.154 2  24098545.007    24098544.102    24098544.772
        24.900          17.800
 108544918.385 7  84580464.896 7  20655405.903    20655404.470    20655405.276
        44.000          45.000
 119857555.032 6  93395490.262 5  22808139.843    22808142.610    22808139.115
        38.000          33.000
 127839943.854 3  99615529.009 3  24327142.751    24327144.675    24327142.145
        21.100          23.800
 120241162.031 5  93694422.990 4  22881124.833    22881124.075    22881124.017
        32.000          27.100
 106977158.327 8  83358847.989 8  20357060.565    20357056.491    20357059.018
        48.000          48.000
